{
  "type": "FeatureCollection",
  "features": [
    {
      "type": "Feature",
      "geometry": {
        "type": "Point",
        "coordinates": [
          105.80412760887474,
          21.046085660008256
        ]
      },
      "properties": {
        "name": "AHK Vietnam Hà Nội",
        "display_name": "AHK Vietnam Hà Nội  45 Hoàng Quốc Việt, Nghĩa Đô, Cầu Giấy, Hà Nội, Việt Nam"
      }
    },
    {
      "type": "Feature",
      "geometry": {
        "type": "Point",
        "coordinates": [
          106.7004464827399,
          10.782316117247701
        ]
      },
      "properties": {
        "name": "DAAD Vietnam",
        "display_name": "DAAD Vietnam  Deutsches Haus, Office, 33 Lê Duẩn, Bến Nghé, Quận 1, Hồ Chí Minh, Việt Nam"
      }
    },
    {
      "type": "Feature",
      "geometry": {
        "type": "Point",
        "coordinates": [
          105.84577068897873,
          21.02603631391497
        ]
      },
      "properties": {
        "name": "GIZ Vietnam Hà Nội",
        "display_name": "GIZ Vietnam Hà Nội  Tầng 4-5, Tòa nhà 63 Lý Thái Tổ, Hoàn Kiếm, Hà Nội, Vietnam"
      }
    },
    {
      "type": "Feature",
      "geometry": {
        "type": "Point",
        "coordinates": [
          106.70087251739449,
          10.782698870247646
        ]
      },
      "properties": {
        "name": "Phòng Công nghiệp và Thương mại Đức tại Việt Nam (AHK Vietnam)",
        "display_name": "Phòng Công nghiệp và Thương mại Đức tại Việt Nam (AHK Vietnam)  Tòa nhà Friendship, 31 Lê Duẩn, Bến Nghé, Quận 1, Hồ Chí Minh, Việt Nam"
      }
    },
    {
      "type": "Feature",
      "geometry": {
        "type": "Point",
        "coordinates": [
          106.74801809808174,
          10.790631876316711
        ]
      },
      "properties": {
        "name": "Trường Quốc tế Đức TP.HCM (IGS)",
        "display_name": "Trường Quốc tế Đức TP.HCM (IGS)  253/11 (251A, Lương Định Của, An Phú, Thủ Đức, Hồ Chí Minh 700000, Việt Nam"
      }
    },
    {
      "type": "Feature",
      "geometry": {
        "type": "Point",
        "coordinates": [
          106.67988145390436,
          10.761116511513002
        ]
      },
      "properties": {
        "name": "Trường THCS Thực hành Sài Gòn",
        "display_name": "Trường THCS Thực hành Sài Gòn  220 Đường Trần Bình Trọng, Phường 4, Quận 5, Hồ Chí Minh, Việt Nam"
      }
    },
    {
      "type": "Feature",
      "geometry": {
        "type": "Point",
        "coordinates": [
          105.85223384239498,
          21.023547214452826
        ]
      },
      "properties": {
        "name": "Trường THCS Trung Vương",
        "display_name": "Trường THCS Trung Vương  26 P. Hàng Bài, Hàng Bài, Hoàn Kiếm, Hà Nội, Việt Nam"
      }
    },
    {
      "type": "Feature",
      "geometry": {
        "type": "Point",
        "coordinates": [
          105.83512908231712,
          21.005811640319514
        ]
      },
      "properties": {
        "name": "Trường THCS Đống Đa",
        "display_name": "Trường THCS Đống Đa  28 P. Lương Định Của, Phương Đình, Đống Đa, Hà Nội 100000, Việt Nam"
      }
    },
    {
      "type": "Feature",
      "geometry": {
        "type": "Point",
        "coordinates": [
          105.8555969,
          21.0206926
        ]
      },
      "properties": {
        "name": "Trường THPT Chu Văn An",
        "display_name": "Trường THPT Chu Văn An  18 Phan Chu Trinh, Hoàn Kiếm, Hà Nội, Vietnam"
      }
    },
    {
      "type": "Feature",
      "geometry": {
        "type": "Point",
        "coordinates": [
          105.7827903631226,
          21.04043827402446
        ]
      },
      "properties": {
        "name": "Trường THPT Chuyên Ngoại ngữ Hà Nội",
        "display_name": "Trường THPT Chuyên Ngoại ngữ Hà Nội  2 Đ. Phạm Văn Đồng, Mai Dịch, Cầu Giấy, Hà Nội, Việt Nam"
      }
    },
    {
      "type": "Feature",
      "geometry": {
        "type": "Point",
        "coordinates": [
          108.1383355,
          15.987104
        ]
      },
      "properties": {
        "name": "Trường THPT Hoa Vang Đà Nẵng",
        "display_name": "Trường THPT Hoa Vang Đà Nẵng  Hoa Vang, Đà Nẵng, Vietnam"
      }
    },
    {
      "type": "Feature",
      "geometry": {
        "type": "Point",
        "coordinates": [
          105.76761467123042,
          21.030206580061858
        ]
      },
      "properties": {
        "name": "Trường THPT Lomonosov Hà Nội",
        "display_name": "Trường THPT Lomonosov Hà Nội  6 P. Trần Văn Cẩn, Mỹ Đình, Nam Từ Liêm, Hà Nội 100000, Việt Nam"
      }
    },
    {
      "type": "Feature",
      "geometry": {
        "type": "Point",
        "coordinates": [
          105.87381484778197,
          21.0468048925014
        ]
      },
      "properties": {
        "name": "Trường THPT Nguyễn Gia Thiều",
        "display_name": "Trường THPT Nguyễn Gia Thiều  27 ngõ 298, Ngọc Lâm, Long Biên, Hà Nội, Việt Nam"
      }
    },
    {
      "type": "Feature",
      "geometry": {
        "type": "Point",
        "coordinates": [
          106.70234688402896,
          10.7790689196392
        ]
      },
      "properties": {
        "name": "Trường THPT Trần Đại Nghĩa",
        "display_name": "Trường THPT Trần Đại Nghĩa  20 Lý Tự Trọng, Quận 1, TP.HCM, Vietnam"
      }
    },
    {
      "type": "Feature",
      "geometry": {
        "type": "Point",
        "coordinates": [
          105.813965,
          21.0712057
        ]
      },
      "properties": {
        "name": "Trường Việt Đức Hà Nội",
        "display_name": "Trường Việt Đức Hà Nội  16 Nhật Chiêu, Tây Hồ, Hà Nội, Vietnam"
      }
    },
    {
      "type": "Feature",
      "geometry": {
        "type": "Point",
        "coordinates": [
          106.61415991969044,
          11.107665406558066
        ]
      },
      "properties": {
        "name": "Trường Đại học Việt Đức (VGU)",
        "display_name": "Trường Đại học Việt Đức (VGU)  Đ. VĐ 4, Thới Hoà, Bến Cát, Bình Dương 75000, Việt Nam"
      }
    },
    {
      "type": "Feature",
      "geometry": {
        "type": "Point",
        "coordinates": [
          106.70004622493875,
          10.787183530554023
        ]
      },
      "properties": {
        "name": "Tổng lãnh sự quán Đức tại TP.HCM",
        "display_name": "Tổng lãnh sự quán Đức tại TP.HCM  126 Nguyễn Thị Minh Khai, Phường 6, Quận 3, TP.HCM, Vietnam"
      }
    },
    {
      "type": "Feature",
      "geometry": {
        "type": "Point",
        "coordinates": [
          105.7810891,
          21.0406284
        ]
      },
      "properties": {
        "name": "ULIS Middle School (UMS)",
        "display_name": "ULIS Middle School (UMS)  Phạm Văn Đồng, Cầu Giấy, Hà Nội, Vietnam"
      }
    },
    {
      "type": "Feature",
      "geometry": {
        "type": "Point",
        "coordinates": [
          105.84028455767083,
          21.007225833866784
        ]
      },
      "properties": {
        "name": "VFS Global Hà Nội",
        "display_name": "VFS Global Hà Nội  Tầng 7, Tòa nhà Detech II, 107 Nguyễn Phong Sắc, Cầu Giấy, Hà Nội, Vietnam"
      }
    },
    {
      "type": "Feature",
      "geometry": {
        "type": "Point",
        "coordinates": [
          106.69841927301245,
          10.777765223920486
        ]
      },
      "properties": {
        "name": "VFS Global TP.HCM",
        "display_name": "VFS Global TP.HCM  Tầng 3, Tòa nhà Bitexco Financial Tower, 2 Hải Triều, Quận 1, TP.HCM, Vietnam"
      }
    },
    {
      "type": "Feature",
      "geometry": {
        "type": "Point",
        "coordinates": [
          105.8376444,
          21.030191
        ]
      },
      "properties": {
        "name": "Viện Goethe Hà Nội",
        "display_name": "Viện Goethe Hà Nội  56-58-60 Nguyễn Thái Học, Ba Đình, Hà Nội, Vietnam"
      }
    },
    {
      "type": "Feature",
      "geometry": {
        "type": "Point",
        "coordinates": [
          106.68086369623369,
          10.773840842659297
        ]
      },
      "properties": {
        "name": "Viện Goethe TP.HCM",
        "display_name": "Viện Goethe TP.HCM  C/X Đô Thành, Cao Thắng/Số 1/18 Bàn Cờ, Phường 4, Quận 3, Hồ Chí Minh 70000, Việt Nam"
      }
    },
    {
      "type": "Feature",
      "geometry": {
        "type": "Point",
        "coordinates": [
          105.8401914,
          21.0306016
        ]
      },
      "properties": {
        "name": "Đại sứ quán CHLB Đức tại Hà Nội",
        "display_name": "Đại sứ quán CHLB Đức tại Hà Nội  29 Trần Phú, Ba Đình, Hà Nội, Vietnam"
      }
    }
  ]
}